{"class":"VERSION","release":"3.16","rev":"3.16-4","proto_major":3,"proto_minor":11}
{"class":"DEVICES","devices":[{"class":"DEVICE","path":"/dev/ttyACM0","driver":"u-blox","subtype":"SW ROM CORE 3.01 (107888),HW 00080000,FWVER=SPG 3.01,PROTVER=18","activated":"2019-01-18T01:22:27.190Z","flags":1,"native":0,"bps":9600,"parity":"N","stopbits":1,"cycle":1.00,"mincycle":0.25}]}
{"class":"WATCH","enable":true,"json":true,"nmea":false,"raw":0,"scaled":false,"timing":false,"split24":false,"pps":false}
{"class":"TPV","device":"/dev/ttyACM0","mode":1,"time":"2019-01-18T01:22:28.999Z","ept":0.005}
{"class":"SKY","device":"/dev/ttyACM0","vdop":99.99,"tdop":99.99,"hdop":99.99,"gdop":99.99,"pdop":99.99,"satellites":[{"PRN":2,"el":16,"az":139,"ss":0,"used":false},{"PRN":5,"el":8,"az":82,"ss":0,"used":false},{"PRN":12,"el":27,"az":141,"ss":0,"used":false},{"PRN":14,"el":11,"az":241,"ss":0,"used":false},{"PRN":15,"el":14,"az":17,"ss":20,"used":false},{"PRN":21,"el":36,"az":337,"ss":26,"used":false},{"PRN":24,"el":55,"az":46,"ss":28,"used":false},{"PRN":25,"el":30,"az":180,"ss":0,"used":false},{"PRN":29,"el":50,"az":215,"ss":29,"used":false},{"PRN":32,"el":20,"az":257,"ss":27,"used":false}]}
{"class":"TPV","device":"/dev/ttyACM0","mode":1,"time":"2019-01-18T01:22:30.000Z","ept":0.005}
{"class":"SKY","device":"/dev/ttyACM0","vdop":99.99,"tdop":99.99,"hdop":99.99,"gdop":99.99,"pdop":99.99,"satellites":[{"PRN":2,"el":16,"az":139,"ss":0,"used":false},{"PRN":5,"el":8,"az":82,"ss":0,"used":false},{"PRN":12,"el":27,"az":141,"ss":0,"used":false},{"PRN":14,"el":11,"az":241,"ss":0,"used":false},{"PRN":15,"el":14,"az":17,"ss":19,"used":false},{"PRN":21,"el":36,"az":337,"ss":26,"used":false},{"PRN":24,"el":55,"az":46,"ss":28,"used":false},{"PRN":25,"el":30,"az":180,"ss":0,"used":false},{"PRN":29,"el":50,"az":215,"ss":29,"used":false},{"PRN":32,"el":20,"az":257,"ss":27,"used":false}]}
{"class":"TPV","device":"/dev/ttyACM0","mode":1,"time":"2019-01-18T01:22:31.001Z","ept":0.005}
{"class":"SKY","device":"/dev/ttyACM0","vdop":99.99,"tdop":99.99,"hdop":99.99,"gdop":99.99,"pdop":99.99,"satellites":[{"PRN":2,"el":16,"az":139,"ss":0,"used":false},{"PRN":5,"el":8,"az":82,"ss":19,"used":false},{"PRN":12,"el":27,"az":141,"ss":0,"used":false},{"PRN":14,"el":11,"az":241,"ss":0,"used":false},{"PRN":15,"el":14,"az":17,"ss":20,"used":false},{"PRN":21,"el":36,"az":337,"ss":26,"used":false},{"PRN":24,"el":55,"az":46,"ss":28,"used":false},{"PRN":25,"el":30,"az":180,"ss":0,"used":false},{"PRN":29,"el":50,"az":215,"ss":29,"used":false},{"PRN":32,"el":20,"az":257,"ss":28,"used":false}]}
{"class":"TPV","device":"/dev/ttyACM0","mode":1,"time":"2019-01-18T01:22:32.000Z","ept":0.005}
{"class":"SKY","device":"/dev/ttyACM0","vdop":99.99,"tdop":99.99,"hdop":99.99,"gdop":99.99,"pdop":99.99,"satellites":[{"PRN":2,"el":16,"az":139,"ss":0,"used":false},{"PRN":5,"el":8,"az":82,"ss":20,"used":false},{"PRN":12,"el":27,"az":141,"ss":0,"used":false},{"PRN":14,"el":11,"az":241,"ss":0,"used":false},{"PRN":15,"el":14,"az":17,"ss":20,"used":false},{"PRN":21,"el":36,"az":337,"ss":26,"used":false},{"PRN":24,"el":55,"az":46,"ss":28,"used":false},{"PRN":25,"el":30,"az":180,"ss":0,"used":false},{"PRN":29,"el":50,"az":215,"ss":29,"used":false},{"PRN":32,"el":20,"az":257,"ss":28,"used":false}]}
{"class":"TPV","device":"/dev/ttyACM0","mode":1,"time":"2019-01-18T01:22:33.000Z","ept":0.005}
{"class":"SKY","device":"/dev/ttyACM0","vdop":99.99,"tdop":99.99,"hdop":99.99,"gdop":99.99,"pdop":99.99,"satellites":[{"PRN":2,"el":16,"az":139,"ss":0,"used":false},{"PRN":5,"el":8,"az":82,"ss":19,"used":false},{"PRN":12,"el":27,"az":141,"ss":0,"used":false},{"PRN":14,"el":11,"az":242,"ss":0,"used":false},{"PRN":15,"el":14,"az":17,"ss":20,"used":false},{"PRN":21,"el":36,"az":337,"ss":26,"used":false},{"PRN":24,"el":55,"az":46,"ss":28,"used":false},{"PRN":25,"el":30,"az":180,"ss":0,"used":false},{"PRN":29,"el":50,"az":215,"ss":29,"used":false},{"PRN":32,"el":20,"az":257,"ss":28,"used":false}]}
{"class":"TPV","device":"/dev/ttyACM0","mode":1,"time":"2019-01-18T01:22:34.000Z","ept":0.005}
{"class":"SKY","device":"/dev/ttyACM0","vdop":99.99,"tdop":99.99,"hdop":99.99,"gdop":99.99,"pdop":99.99,"satellites":[{"PRN":2,"el":16,"az":139,"ss":0,"used":false},{"PRN":5,"el":8,"az":82,"ss":19,"used":false},{"PRN":12,"el":27,"az":141,"ss":0,"used":false},{"PRN":14,"el":11,"az":242,"ss":0,"used":false},{"PRN":15,"el":14,"az":17,"ss":19,"used":false},{"PRN":21,"el":36,"az":337,"ss":26,"used":false},{"PRN":24,"el":55,"az":46,"ss":29,"used":false},{"PRN":25,"el":30,"az":180,"ss":0,"used":false},{"PRN":29,"el":50,"az":215,"ss":29,"used":false},{"PRN":32,"el":20,"az":257,"ss":28,"used":false}]}
{"class":"TPV","device":"/dev/ttyACM0","mode":1,"time":"2019-01-18T01:22:35.000Z","ept":0.005}
{"class":"SKY","device":"/dev/ttyACM0","vdop":99.99,"tdop":99.99,"hdop":99.99,"gdop":99.99,"pdop":99.99,"satellites":[{"PRN":5,"el":8,"az":82,"ss":20,"used":false},{"PRN":15,"el":14,"az":17,"ss":19,"used":false},{"PRN":21,"el":36,"az":337,"ss":27,"used":false},{"PRN":24,"el":55,"az":46,"ss":28,"used":false},{"PRN":29,"el":50,"az":215,"ss":29,"used":false},{"PRN":32,"el":20,"az":257,"ss":28,"used":false}]}
{"class":"SKY","device":"/dev/ttyACM0","vdop":99.99,"tdop":99.99,"hdop":99.99,"gdop":99.99,"pdop":99.99,"satellites":[{"PRN":2,"el":16,"az":139,"ss":0,"used":false},{"PRN":5,"el":8,"az":82,"ss":20,"used":false},{"PRN":12,"el":27,"az":141,"ss":0,"used":false},{"PRN":14,"el":11,"az":242,"ss":0,"used":false},{"PRN":15,"el":14,"az":17,"ss":19,"used":false},{"PRN":21,"el":36,"az":337,"ss":27,"used":false},{"PRN":24,"el":55,"az":46,"ss":28,"used":false},{"PRN":25,"el":30,"az":180,"ss":0,"used":false},{"PRN":29,"el":50,"az":215,"ss":29,"used":false},{"PRN":32,"el":20,"az":257,"ss":28,"used":false}]}
{"class":"TPV","device":"/dev/ttyACM0","mode":1,"time":"2019-01-18T01:22:36.000Z","ept":0.005}
{"class":"SKY","device":"/dev/ttyACM0","vdop":99.99,"tdop":99.99,"hdop":99.99,"gdop":99.99,"pdop":99.99,"satellites":[{"PRN":2,"el":16,"az":139,"ss":0,"used":false},{"PRN":5,"el":8,"az":82,"ss":20,"used":false},{"PRN":12,"el":27,"az":141,"ss":0,"used":false},{"PRN":14,"el":11,"az":242,"ss":0,"used":false},{"PRN":15,"el":14,"az":17,"ss":20,"used":false},{"PRN":21,"el":36,"az":337,"ss":27,"used":false},{"PRN":24,"el":55,"az":46,"ss":28,"used":false},{"PRN":25,"el":30,"az":180,"ss":0,"used":false},{"PRN":29,"el":50,"az":215,"ss":29,"used":false},{"PRN":32,"el":20,"az":257,"ss":28,"used":false}]}
{"class":"TPV","device":"/dev/ttyACM0","mode":1,"time":"2019-01-18T01:22:37.000Z","ept":0.005}
{"class":"SKY","device":"/dev/ttyACM0","vdop":99.99,"tdop":99.99,"hdop":99.99,"gdop":99.99,"pdop":99.99,"satellites":[{"PRN":2,"el":16,"az":139,"ss":0,"used":false},{"PRN":5,"el":8,"az":82,"ss":20,"used":false},{"PRN":12,"el":27,"az":141,"ss":0,"used":false},{"PRN":14,"el":11,"az":242,"ss":0,"used":false},{"PRN":15,"el":14,"az":17,"ss":20,"used":false},{"PRN":21,"el":36,"az":337,"ss":26,"used":false},{"PRN":24,"el":55,"az":46,"ss":28,"used":false},{"PRN":25,"el":30,"az":180,"ss":0,"used":false},{"PRN":29,"el":50,"az":215,"ss":30,"used":false},{"PRN":32,"el":20,"az":257,"ss":28,"used":false}]}
{"class":"TPV","device":"/dev/ttyACM0","mode":1,"time":"2019-01-18T01:22:38.000Z","ept":0.005}
{"class":"SKY","device":"/dev/ttyACM0","vdop":99.99,"tdop":99.99,"hdop":99.99,"gdop":99.99,"pdop":99.99,"satellites":[{"PRN":2,"el":16,"az":139,"ss":0,"used":false},{"PRN":5,"el":8,"az":82,"ss":20,"used":false},{"PRN":12,"el":27,"az":141,"ss":0,"used":false},{"PRN":14,"el":11,"az":242,"ss":0,"used":false},{"PRN":15,"el":14,"az":17,"ss":19,"used":false},{"PRN":21,"el":36,"az":337,"ss":26,"used":false},{"PRN":24,"el":55,"az":46,"ss":28,"used":false},{"PRN":25,"el":30,"az":180,"ss":0,"used":false},{"PRN":29,"el":50,"az":215,"ss":29,"used":false},{"PRN":32,"el":20,"az":257,"ss":28,"used":false}]}
{"class":"TPV","device":"/dev/ttyACM0","mode":1,"time":"2019-01-18T01:22:39.000Z","ept":0.005}
{"class":"SKY","device":"/dev/ttyACM0","vdop":99.99,"tdop":99.99,"hdop":99.99,"gdop":99.99,"pdop":99.99,"satellites":[{"PRN":2,"el":16,"az":139,"ss":0,"used":false},{"PRN":5,"el":8,"az":82,"ss":20,"used":false},{"PRN":12,"el":27,"az":141,"ss":0,"used":false},{"PRN":14,"el":11,"az":242,"ss":0,"used":false},{"PRN":15,"el":14,"az":17,"ss":20,"used":false},{"PRN":21,"el":36,"az":337,"ss":26,"used":false},{"PRN":24,"el":55,"az":46,"ss":28,"used":false},{"PRN":25,"el":30,"az":180,"ss":0,"used":false},{"PRN":29,"el":50,"az":215,"ss":30,"used":false},{"PRN":32,"el":20,"az":258,"ss":28,"used":false}]}
{"class":"TPV","device":"/dev/ttyACM0","mode":1,"time":"2019-01-18T01:22:40.000Z","ept":0.005}
{"class":"SKY","device":"/dev/ttyACM0","vdop":99.99,"tdop":99.99,"hdop":99.99,"gdop":99.99,"pdop":99.99,"satellites":[{"PRN":2,"el":16,"az":139,"ss":0,"used":false},{"PRN":5,"el":8,"az":82,"ss":20,"used":false},{"PRN":12,"el":27,"az":141,"ss":0,"used":false},{"PRN":14,"el":11,"az":242,"ss":0,"used":false},{"PRN":15,"el":14,"az":17,"ss":20,"used":false},{"PRN":21,"el":36,"az":337,"ss":26,"used":false},{"PRN":24,"el":55,"az":46,"ss":28,"used":false},{"PRN":25,"el":30,"az":180,"ss":0,"used":false},{"PRN":29,"el":50,"az":215,"ss":30,"used":false},{"PRN":32,"el":20,"az":258,"ss":28,"used":false}]}
{"class":"TPV","device":"/dev/ttyACM0","mode":1,"time":"2019-01-18T01:22:41.000Z","ept":0.005}
{"class":"SKY","device":"/dev/ttyACM0","vdop":99.99,"tdop":99.99,"hdop":99.99,"gdop":99.99,"pdop":99.99,"satellites":[{"PRN":2,"el":16,"az":139,"ss":0,"used":false},{"PRN":5,"el":8,"az":82,"ss":21,"used":false},{"PRN":12,"el":27,"az":141,"ss":0,"used":false},{"PRN":14,"el":11,"az":242,"ss":0,"used":false},{"PRN":15,"el":14,"az":17,"ss":20,"used":false},{"PRN":21,"el":36,"az":337,"ss":26,"used":false},{"PRN":24,"el":55,"az":46,"ss":28,"used":false},{"PRN":25,"el":30,"az":180,"ss":0,"used":false},{"PRN":29,"el":50,"az":215,"ss":30,"used":false},{"PRN":32,"el":20,"az":258,"ss":28,"used":false}]}
{"class":"TPV","device":"/dev/ttyACM0","mode":1,"time":"2019-01-18T01:22:42.000Z","ept":0.005}
{"class":"SKY","device":"/dev/ttyACM0","vdop":99.99,"tdop":99.99,"hdop":99.99,"gdop":99.99,"pdop":99.99,"satellites":[{"PRN":2,"el":16,"az":139,"ss":0,"used":false},{"PRN":5,"el":8,"az":82,"ss":21,"used":false},{"PRN":12,"el":27,"az":141,"ss":0,"used":false},{"PRN":14,"el":11,"az":242,"ss":0,"used":false},{"PRN":15,"el":14,"az":17,"ss":20,"used":false},{"PRN":21,"el":36,"az":337,"ss":26,"used":false},{"PRN":24,"el":55,"az":46,"ss":28,"used":false},{"PRN":25,"el":30,"az":180,"ss":0,"used":false},{"PRN":29,"el":50,"az":215,"ss":29,"used":false},{"PRN":32,"el":20,"az":258,"ss":28,"used":false}]}
{"class":"TPV","device":"/dev/ttyACM0","mode":1,"time":"2019-01-18T01:22:43.000Z","ept":0.005}
{"class":"SKY","device":"/dev/ttyACM0","vdop":99.99,"tdop":99.99,"hdop":99.99,"gdop":99.99,"pdop":99.99,"satellites":[{"PRN":2,"el":16,"az":139,"ss":0,"used":false},{"PRN":5,"el":8,"az":82,"ss":21,"used":false},{"PRN":12,"el":27,"az":141,"ss":0,"used":false},{"PRN":14,"el":11,"az":242,"ss":0,"used":false},{"PRN":15,"el":14,"az":17,"ss":20,"used":false},{"PRN":21,"el":36,"az":337,"ss":27,"used":false},{"PRN":24,"el":55,"az":46,"ss":28,"used":false},{"PRN":25,"el":30,"az":180,"ss":0,"used":false},{"PRN":29,"el":50,"az":215,"ss":29,"used":false},{"PRN":32,"el":20,"az":258,"ss":28,"used":false}]}
{"class":"TPV","device":"/dev/ttyACM0","mode":1,"time":"2019-01-18T01:22:44.000Z","ept":0.005}
{"class":"SKY","device":"/dev/ttyACM0","vdop":99.99,"tdop":99.99,"hdop":99.99,"gdop":99.99,"pdop":99.99,"satellites":[{"PRN":2,"el":16,"az":139,"ss":0,"used":false},{"PRN":5,"el":8,"az":82,"ss":21,"used":false},{"PRN":12,"el":27,"az":141,"ss":0,"used":false},{"PRN":14,"el":11,"az":242,"ss":0,"used":false},{"PRN":15,"el":14,"az":17,"ss":20,"used":false},{"PRN":21,"el":36,"az":337,"ss":27,"used":false},{"PRN":24,"el":55,"az":46,"ss":28,"used":false},{"PRN":25,"el":30,"az":180,"ss":0,"used":false},{"PRN":29,"el":50,"az":215,"ss":29,"used":false},{"PRN":32,"el":20,"az":258,"ss":28,"used":false}]}
{"class":"TPV","device":"/dev/ttyACM0","mode":1,"time":"2019-01-18T01:22:45.000Z","ept":0.005}
{"class":"SKY","device":"/dev/ttyACM0","vdop":99.99,"tdop":99.99,"hdop":99.99,"gdop":99.99,"pdop":99.99,"satellites":[{"PRN":5,"el":8,"az":82,"ss":20,"used":false},{"PRN":15,"el":14,"az":17,"ss":19,"used":false},{"PRN":21,"el":36,"az":337,"ss":26,"used":false},{"PRN":24,"el":55,"az":46,"ss":28,"used":false},{"PRN":29,"el":50,"az":215,"ss":28,"used":false},{"PRN":32,"el":20,"az":258,"ss":28,"used":false}]}
{"class":"SKY","device":"/dev/ttyACM0","vdop":99.99,"tdop":99.99,"hdop":99.99,"gdop":99.99,"pdop":99.99,"satellites":[{"PRN":2,"el":16,"az":139,"ss":0,"used":false},{"PRN":5,"el":8,"az":82,"ss":20,"used":false},{"PRN":12,"el":27,"az":141,"ss":0,"used":false},{"PRN":14,"el":11,"az":242,"ss":0,"used":false},{"PRN":15,"el":14,"az":17,"ss":19,"used":false},{"PRN":21,"el":36,"az":337,"ss":26,"used":false},{"PRN":24,"el":55,"az":46,"ss":28,"used":false},{"PRN":25,"el":30,"az":180,"ss":0,"used":false},{"PRN":29,"el":50,"az":215,"ss":28,"used":false},{"PRN":32,"el":20,"az":258,"ss":28,"used":false}]}
{"class":"TPV","device":"/dev/ttyACM0","mode":1,"time":"2019-01-18T01:22:46.000Z","ept":0.005}
{"class":"SKY","device":"/dev/ttyACM0","vdop":99.99,"tdop":99.99,"hdop":99.99,"gdop":99.99,"pdop":99.99,"satellites":[{"PRN":2,"el":16,"az":139,"ss":0,"used":false},{"PRN":5,"el":8,"az":82,"ss":21,"used":false},{"PRN":12,"el":27,"az":141,"ss":0,"used":false},{"PRN":14,"el":11,"az":242,"ss":0,"used":false},{"PRN":15,"el":14,"az":17,"ss":19,"used":false},{"PRN":21,"el":36,"az":337,"ss":27,"used":false},{"PRN":24,"el":55,"az":46,"ss":28,"used":false},{"PRN":25,"el":30,"az":180,"ss":0,"used":false},{"PRN":29,"el":50,"az":215,"ss":28,"used":false},{"PRN":32,"el":20,"az":258,"ss":28,"used":false}]}
{"class":"TPV","device":"/dev/ttyACM0","mode":1,"time":"2019-01-18T01:22:47.000Z","ept":0.005}
{"class":"SKY","device":"/dev/ttyACM0","vdop":99.99,"tdop":99.99,"hdop":99.99,"gdop":99.99,"pdop":99.99,"satellites":[{"PRN":2,"el":16,"az":139,"ss":0,"used":false},{"PRN":5,"el":8,"az":82,"ss":21,"used":false},{"PRN":12,"el":27,"az":141,"ss":0,"used":false},{"PRN":14,"el":11,"az":242,"ss":0,"used":false},{"PRN":15,"el":14,"az":17,"ss":19,"used":false},{"PRN":21,"el":36,"az":337,"ss":26,"used":false},{"PRN":24,"el":55,"az":46,"ss":28,"used":false},{"PRN":25,"el":30,"az":180,"ss":0,"used":false},{"PRN":29,"el":50,"az":215,"ss":28,"used":false},{"PRN":32,"el":20,"az":258,"ss":28,"used":false}]}
{"class":"TPV","device":"/dev/ttyACM0","mode":1,"time":"2019-01-18T01:22:48.000Z","ept":0.005}
{"class":"SKY","device":"/dev/ttyACM0","vdop":99.99,"tdop":99.99,"hdop":99.99,"gdop":99.99,"pdop":99.99,"satellites":[{"PRN":2,"el":16,"az":139,"ss":0,"used":false},{"PRN":5,"el":8,"az":82,"ss":21,"used":false},{"PRN":12,"el":27,"az":141,"ss":0,"used":false},{"PRN":14,"el":11,"az":242,"ss":0,"used":false},{"PRN":15,"el":14,"az":17,"ss":19,"used":false},{"PRN":21,"el":36,"az":337,"ss":27,"used":false},{"PRN":24,"el":55,"az":46,"ss":28,"used":false},{"PRN":25,"el":30,"az":180,"ss":0,"used":false},{"PRN":29,"el":50,"az":215,"ss":28,"used":false},{"PRN":32,"el":20,"az":258,"ss":28,"used":false}]}
{"class":"TPV","device":"/dev/ttyACM0","mode":2,"time":"2019-01-18T01:22:49.000Z","ept":0.005,"lat":-6.158294681,"lon":106.576356587,"track":133.4463,"speed":0.044,"eps":1.18}
{"class":"SKY","device":"/dev/ttyACM0","vdop":1.00,"tdop":1.00,"hdop":2.72,"gdop":3.07,"pdop":2.90,"satellites":[{"PRN":2,"el":16,"az":139,"ss":0,"used":false},{"PRN":5,"el":8,"az":82,"ss":20,"used":false},{"PRN":12,"el":27,"az":141,"ss":0,"used":false},{"PRN":14,"el":11,"az":242,"ss":0,"used":false},{"PRN":15,"el":14,"az":17,"ss":18,"used":false},{"PRN":21,"el":36,"az":337,"ss":27,"used":false},{"PRN":24,"el":55,"az":46,"ss":28,"used":false},{"PRN":25,"el":30,"az":180,"ss":0,"used":false},{"PRN":29,"el":50,"az":215,"ss":29,"used":false},{"PRN":32,"el":20,"az":258,"ss":28,"used":false}]}
{"class":"TPV","device":"/dev/ttyACM0","mode":2,"time":"2019-01-18T01:22:50.000Z","ept":0.005,"lat":-6.158292329,"lon":106.576356973,"track":337.8474,"speed":0.033,"eps":0.92}
{"class":"SKY","device":"/dev/ttyACM0","vdop":1.00,"tdop":1.00,"hdop":2.72,"gdop":3.07,"pdop":2.90,"satellites":[{"PRN":2,"el":16,"az":139,"ss":0,"used":false},{"PRN":5,"el":8,"az":82,"ss":20,"used":false},{"PRN":12,"el":27,"az":141,"ss":17,"used":false},{"PRN":14,"el":11,"az":242,"ss":0,"used":false},{"PRN":15,"el":14,"az":17,"ss":19,"used":false},{"PRN":21,"el":36,"az":337,"ss":27,"used":false},{"PRN":24,"el":55,"az":46,"ss":28,"used":false},{"PRN":25,"el":30,"az":180,"ss":0,"used":false},{"PRN":29,"el":50,"az":215,"ss":29,"used":false},{"PRN":32,"el":20,"az":258,"ss":28,"used":false}]}
{"class":"TPV","device":"/dev/ttyACM0","mode":2,"time":"2019-01-18T01:22:51.000Z","ept":0.005,"lat":-6.158290738,"lon":106.576354471,"track":347.3479,"speed":0.114,"eps":1.03}
{"class":"SKY","device":"/dev/ttyACM0","vdop":1.00,"tdop":1.00,"hdop":2.72,"gdop":3.06,"pdop":2.90,"satellites":[{"PRN":2,"el":16,"az":139,"ss":0,"used":false},{"PRN":5,"el":8,"az":82,"ss":20,"used":false},{"PRN":12,"el":27,"az":141,"ss":17,"used":false},{"PRN":14,"el":11,"az":242,"ss":0,"used":false},{"PRN":15,"el":14,"az":17,"ss":19,"used":false},{"PRN":21,"el":36,"az":337,"ss":27,"used":false},{"PRN":24,"el":55,"az":46,"ss":28,"used":false},{"PRN":25,"el":30,"az":180,"ss":0,"used":false},{"PRN":29,"el":50,"az":215,"ss":29,"used":false},{"PRN":32,"el":20,"az":258,"ss":28,"used":false}]}
{"class":"TPV","device":"/dev/ttyACM0","mode":2,"time":"2019-01-18T01:22:52.000Z","ept":0.005,"lat":-6.158290431,"lon":106.576350238,"track":0.0000,"speed":0.030,"eps":0.96}
{"class":"SKY","device":"/dev/ttyACM0","vdop":1.00,"tdop":1.00,"hdop":2.72,"gdop":3.06,"pdop":2.90,"satellites":[{"PRN":2,"el":16,"az":139,"ss":0,"used":false},{"PRN":5,"el":8,"az":82,"ss":20,"used":false},{"PRN":12,"el":27,"az":141,"ss":16,"used":false},{"PRN":14,"el":11,"az":242,"ss":0,"used":false},{"PRN":15,"el":14,"az":17,"ss":20,"used":false},{"PRN":21,"el":36,"az":337,"ss":26,"used":false},{"PRN":24,"el":55,"az":46,"ss":28,"used":false},{"PRN":25,"el":30,"az":180,"ss":0,"used":false},{"PRN":29,"el":50,"az":215,"ss":29,"used":false},{"PRN":32,"el":20,"az":258,"ss":28,"used":false}]}
{"class":"TPV","device":"/dev/ttyACM0","mode":2,"time":"2019-01-18T01:22:53.000Z","ept":0.005,"lat":-6.158290567,"lon":106.576347182,"track":180.0000,"speed":0.030,"eps":0.96}
{"class":"SKY","device":"/dev/ttyACM0","vdop":1.00,"tdop":1.00,"hdop":2.72,"gdop":3.06,"pdop":2.89,"satellites":[{"PRN":2,"el":16,"az":139,"ss":0,"used":false},{"PRN":5,"el":8,"az":82,"ss":20,"used":false},{"PRN":12,"el":27,"az":141,"ss":15,"used":false},{"PRN":14,"el":11,"az":242,"ss":0,"used":false},{"PRN":15,"el":14,"az":17,"ss":20,"used":false},{"PRN":21,"el":36,"az":337,"ss":27,"used":false},{"PRN":24,"el":55,"az":46,"ss":28,"used":false},{"PRN":25,"el":30,"az":180,"ss":0,"used":false},{"PRN":29,"el":50,"az":215,"ss":29,"used":false},{"PRN":32,"el":20,"az":258,"ss":28,"used":false}]}
{"class":"TPV","device":"/dev/ttyACM0","mode":2,"time":"2019-01-18T01:22:54.000Z","ept":0.005,"lat":-6.158296486,"lon":106.576348034,"track":268.1710,"speed":0.010,"eps":1.08}
{"class":"SKY","device":"/dev/ttyACM0","vdop":1.00,"tdop":1.00,"hdop":2.71,"gdop":3.06,"pdop":2.89,"satellites":[{"PRN":2,"el":16,"az":139,"ss":0,"used":false},{"PRN":5,"el":8,"az":82,"ss":20,"used":false},{"PRN":12,"el":27,"az":141,"ss":15,"used":false},{"PRN":14,"el":11,"az":242,"ss":0,"used":false},{"PRN":15,"el":14,"az":17,"ss":19,"used":false},{"PRN":21,"el":36,"az":337,"ss":27,"used":false},{"PRN":24,"el":55,"az":46,"ss":28,"used":false},{"PRN":25,"el":30,"az":180,"ss":0,"used":false},{"PRN":29,"el":50,"az":215,"ss":29,"used":false},{"PRN":32,"el":20,"az":258,"ss":28,"used":false}]}
{"class":"TPV","device":"/dev/ttyACM0","mode":2,"time":"2019-01-18T01:22:55.000Z","ept":0.005,"lat":-6.158302004,"lon":106.576348822,"track":122.3182,"speed":0.037,"eps":1.02}
{"class":"SKY","device":"/dev/ttyACM0","vdop":1.00,"tdop":1.00,"hdop":2.71,"gdop":3.06,"pdop":2.89,"satellites":[{"PRN":5,"el":8,"az":82,"ss":21,"used":false},{"PRN":12,"el":27,"az":141,"ss":16,"used":false},{"PRN":15,"el":14,"az":17,"ss":19,"used":false},{"PRN":21,"el":36,"az":337,"ss":26,"used":false},{"PRN":24,"el":55,"az":46,"ss":27,"used":true},{"PRN":29,"el":50,"az":215,"ss":29,"used":true},{"PRN":32,"el":20,"az":258,"ss":28,"used":true}]}
{"class":"SKY","device":"/dev/ttyACM0","vdop":1.00,"tdop":1.00,"hdop":2.71,"gdop":3.06,"pdop":2.89,"satellites":[{"PRN":2,"el":16,"az":139,"ss":0,"used":false},{"PRN":5,"el":8,"az":82,"ss":21,"used":false},{"PRN":12,"el":27,"az":141,"ss":16,"used":false},{"PRN":14,"el":11,"az":242,"ss":0,"used":false},{"PRN":15,"el":14,"az":17,"ss":19,"used":false},{"PRN":21,"el":36,"az":337,"ss":26,"used":false},{"PRN":24,"el":55,"az":46,"ss":27,"used":false},{"PRN":25,"el":30,"az":180,"ss":0,"used":false},{"PRN":29,"el":50,"az":215,"ss":29,"used":false},{"PRN":32,"el":20,"az":258,"ss":28,"used":false}]}
{"class":"TPV","device":"/dev/ttyACM0","mode":2,"time":"2019-01-18T01:22:56.000Z","ept":0.005,"lat":-6.158296509,"lon":106.576347219,"track":107.6432,"speed":0.033,"eps":0.92}
{"class":"SKY","device":"/dev/ttyACM0","vdop":1.00,"tdop":1.00,"hdop":2.71,"gdop":3.06,"pdop":2.89,"satellites":[{"PRN":2,"el":16,"az":139,"ss":0,"used":false},{"PRN":5,"el":8,"az":82,"ss":21,"used":false},{"PRN":12,"el":27,"az":141,"ss":17,"used":false},{"PRN":14,"el":11,"az":242,"ss":0,"used":false},{"PRN":15,"el":14,"az":17,"ss":18,"used":false},{"PRN":21,"el":36,"az":337,"ss":27,"used":false},{"PRN":24,"el":55,"az":46,"ss":28,"used":false},{"PRN":25,"el":30,"az":180,"ss":0,"used":false},{"PRN":29,"el":50,"az":215,"ss":29,"used":false},{"PRN":32,"el":20,"az":258,"ss":28,"used":false}]}
{"class":"TPV","device":"/dev/ttyACM0","mode":2,"time":"2019-01-18T01:22:57.000Z","ept":0.005,"lat":-6.158290862,"lon":106.576346296,"track":315.1545,"speed":0.014,"eps":1.07}
{"class":"SKY","device":"/dev/ttyACM0","vdop":1.00,"tdop":1.00,"hdop":2.71,"gdop":3.06,"pdop":2.89,"satellites":[{"PRN":2,"el":16,"az":139,"ss":0,"used":false},{"PRN":5,"el":8,"az":82,"ss":20,"used":false},{"PRN":12,"el":27,"az":141,"ss":17,"used":false},{"PRN":14,"el":11,"az":242,"ss":0,"used":false},{"PRN":15,"el":14,"az":17,"ss":18,"used":false},{"PRN":21,"el":36,"az":337,"ss":27,"used":false},{"PRN":24,"el":55,"az":46,"ss":28,"used":false},{"PRN":25,"el":30,"az":180,"ss":0,"used":false},{"PRN":29,"el":50,"az":215,"ss":29,"used":false},{"PRN":32,"el":20,"az":258,"ss":28,"used":false}]}
{"class":"TPV","device":"/dev/ttyACM0","mode":2,"time":"2019-01-18T01:22:58.000Z","ept":0.005,"lat":-6.158291011,"lon":106.576346857,"track":323.9394,"speed":0.037,"eps":1.08}
{"class":"SKY","device":"/dev/ttyACM0","vdop":1.00,"tdop":1.00,"hdop":2.71,"gdop":3.06,"pdop":2.89,"satellites":[{"PRN":2,"el":16,"az":139,"ss":0,"used":false},{"PRN":5,"el":8,"az":82,"ss":21,"used":false},{"PRN":12,"el":27,"az":141,"ss":17,"used":false},{"PRN":14,"el":12,"az":242,"ss":0,"used":false},{"PRN":15,"el":14,"az":17,"ss":19,"used":false},{"PRN":21,"el":36,"az":337,"ss":27,"used":false},{"PRN":24,"el":55,"az":46,"ss":28,"used":false},{"PRN":25,"el":30,"az":180,"ss":0,"used":false},{"PRN":29,"el":50,"az":215,"ss":29,"used":false},{"PRN":32,"el":20,"az":258,"ss":28,"used":false}]}
{"class":"TPV","device":"/dev/ttyACM0","mode":2,"time":"2019-01-18T01:22:59.000Z","ept":0.005,"lat":-6.158298361,"lon":106.576349007,"track":337.8474,"speed":0.033,"eps":1.08}
{"class":"SKY","device":"/dev/ttyACM0","vdop":1.00,"tdop":1.00,"hdop":2.71,"gdop":3.06,"pdop":2.89,"satellites":[{"PRN":2,"el":16,"az":139,"ss":0,"used":false},{"PRN":5,"el":8,"az":82,"ss":21,"used":false},{"PRN":12,"el":27,"az":141,"ss":18,"used":false},{"PRN":14,"el":12,"az":242,"ss":0,"used":false},{"PRN":15,"el":14,"az":17,"ss":19,"used":false},{"PRN":21,"el":36,"az":337,"ss":27,"used":false},{"PRN":24,"el":55,"az":46,"ss":28,"used":false},{"PRN":25,"el":30,"az":180,"ss":0,"used":false},{"PRN":29,"el":50,"az":215,"ss":29,"used":false},{"PRN":32,"el":20,"az":258,"ss":28,"used":false}]}
{"class":"TPV","device":"/dev/ttyACM0","mode":2,"time":"2019-01-18T01:23:00.000Z","ept":0.005,"lat":-6.158301586,"lon":106.576350742,"track":164.0344,"speed":0.125,"eps":1.04}
{"class":"SKY","device":"/dev/ttyACM0","vdop":1.00,"tdop":1.00,"hdop":2.71,"gdop":3.06,"pdop":2.89,"satellites":[{"PRN":2,"el":16,"az":139,"ss":0,"used":false},{"PRN":5,"el":8,"az":82,"ss":20,"used":false},{"PRN":12,"el":27,"az":141,"ss":17,"used":false},{"PRN":14,"el":12,"az":242,"ss":0,"used":false},{"PRN":15,"el":14,"az":17,"ss":19,"used":false},{"PRN":21,"el":36,"az":337,"ss":26,"used":false},{"PRN":24,"el":55,"az":46,"ss":27,"used":false},{"PRN":25,"el":30,"az":180,"ss":0,"used":false},{"PRN":29,"el":50,"az":215,"ss":29,"used":false},{"PRN":32,"el":20,"az":258,"ss":28,"used":false}]}
{"class":"TPV","device":"/dev/ttyACM0","mode":2,"time":"2019-01-18T01:23:01.000Z","ept":0.005,"lat":-6.158304355,"lon":106.576352132,"track":0.0000,"speed":0.000,"eps":0.79}
{"class":"SKY","device":"/dev/ttyACM0","vdop":1.00,"tdop":1.00,"hdop":2.71,"gdop":3.05,"pdop":2.89,"satellites":[{"PRN":2,"el":16,"az":139,"ss":0,"used":false},{"PRN":5,"el":8,"az":82,"ss":20,"used":false},{"PRN":12,"el":27,"az":141,"ss":18,"used":false},{"PRN":14,"el":12,"az":242,"ss":0,"used":false},{"PRN":15,"el":14,"az":17,"ss":19,"used":false},{"PRN":21,"el":36,"az":337,"ss":27,"used":false},{"PRN":24,"el":55,"az":46,"ss":27,"used":false},{"PRN":25,"el":30,"az":180,"ss":0,"used":false},{"PRN":29,"el":50,"az":215,"ss":29,"used":false},{"PRN":32,"el":20,"az":258,"ss":28,"used":false}]}
{"class":"TPV","device":"/dev/ttyACM0","mode":3,"time":"2019-01-18T01:23:02.000Z","ept":0.005,"lat":-6.158244424,"lon":106.576241763,"alt":19.140,"epv":23.000,"track":328.8866,"speed":0.024,"climb":0.005,"eps":2.26}
{"class":"SKY","device":"/dev/ttyACM0","vdop":7.23,"tdop":5.56,"hdop":3.54,"gdop":9.79,"pdop":8.05,"satellites":[{"PRN":2,"el":16,"az":139,"ss":0,"used":false},{"PRN":5,"el":8,"az":82,"ss":20,"used":false},{"PRN":12,"el":27,"az":141,"ss":17,"used":false},{"PRN":14,"el":12,"az":242,"ss":0,"used":false},{"PRN":15,"el":14,"az":17,"ss":19,"used":false},{"PRN":21,"el":36,"az":337,"ss":27,"used":false},{"PRN":24,"el":55,"az":46,"ss":27,"used":false},{"PRN":25,"el":30,"az":180,"ss":0,"used":false},{"PRN":29,"el":50,"az":215,"ss":30,"used":false},{"PRN":32,"el":20,"az":258,"ss":28,"used":false}]}
{"class":"TPV","device":"/dev/ttyACM0","mode":3,"time":"2019-01-18T01:23:03.000Z","ept":0.005,"lat":-6.158240556,"lon":106.576245924,"alt":19.935,"epv":166.290,"track":355.9999,"speed":0.041,"climb":0.005,"eps":1.22,"epc":189.29}
{"class":"SKY","device":"/dev/ttyACM0","vdop":7.23,"tdop":5.57,"hdop":3.54,"gdop":9.79,"pdop":8.05,"satellites":[{"PRN":2,"el":16,"az":139,"ss":0,"used":false},{"PRN":5,"el":8,"az":82,"ss":20,"used":false},{"PRN":12,"el":27,"az":141,"ss":17,"used":false},{"PRN":14,"el":12,"az":242,"ss":0,"used":false},{"PRN":15,"el":14,"az":17,"ss":19,"used":false},{"PRN":21,"el":36,"az":337,"ss":27,"used":false},{"PRN":24,"el":55,"az":46,"ss":27,"used":false},{"PRN":25,"el":30,"az":180,"ss":0,"used":false},{"PRN":29,"el":50,"az":215,"ss":30,"used":false},{"PRN":32,"el":20,"az":258,"ss":28,"used":false}]}
{"class":"TPV","device":"/dev/ttyACM0","mode":3,"time":"2019-01-18T01:23:04.000Z","ept":0.005,"lat":-6.158238821,"lon":106.576248465,"alt":18.823,"epv":166.290,"track":347.6618,"speed":0.030,"climb":0.089,"eps":2.49,"epc":332.58}
{"class":"SKY","device":"/dev/ttyACM0","vdop":7.23,"tdop":5.57,"hdop":3.54,"gdop":9.79,"pdop":8.05,"satellites":[{"PRN":2,"el":16,"az":139,"ss":0,"used":false},{"PRN":5,"el":8,"az":82,"ss":20,"used":false},{"PRN":12,"el":27,"az":141,"ss":17,"used":false},{"PRN":14,"el":12,"az":242,"ss":0,"used":false},{"PRN":15,"el":14,"az":17,"ss":20,"used":false},{"PRN":21,"el":36,"az":337,"ss":27,"used":false},{"PRN":24,"el":54,"az":46,"ss":27,"used":false},{"PRN":25,"el":30,"az":180,"ss":0,"used":false},{"PRN":29,"el":50,"az":215,"ss":29,"used":false},{"PRN":32,"el":20,"az":258,"ss":28,"used":false}]}
{"class":"TPV","device":"/dev/ttyACM0","mode":3,"time":"2019-01-18T01:23:05.000Z","ept":0.005,"lat":-6.158235482,"lon":106.576249379,"alt":19.076,"epv":166.290,"track":296.6325,"speed":0.049,"climb":0.110,"eps":2.24,"epc":332.58}
{"class":"SKY","device":"/dev/ttyACM0","xdop":3.09,"ydop":1.55,"vdop":7.23,"tdop":5.57,"hdop":3.54,"gdop":9.79,"pdop":8.05,"satellites":[{"PRN":5,"el":8,"az":82,"ss":20,"used":false},{"PRN":12,"el":27,"az":141,"ss":17,"used":false},{"PRN":15,"el":14,"az":17,"ss":19,"used":false},{"PRN":21,"el":36,"az":337,"ss":27,"used":true},{"PRN":24,"el":54,"az":46,"ss":27,"used":true},{"PRN":29,"el":50,"az":215,"ss":30,"used":true},{"PRN":32,"el":20,"az":258,"ss":28,"used":true}]}
{"class":"SKY","device":"/dev/ttyACM0","xdop":3.09,"ydop":1.55,"vdop":7.23,"tdop":5.57,"hdop":3.54,"gdop":9.79,"pdop":8.05,"satellites":[{"PRN":2,"el":16,"az":139,"ss":0,"used":false},{"PRN":5,"el":8,"az":82,"ss":20,"used":false},{"PRN":12,"el":27,"az":141,"ss":17,"used":false},{"PRN":14,"el":12,"az":242,"ss":0,"used":false},{"PRN":15,"el":14,"az":17,"ss":19,"used":false},{"PRN":21,"el":36,"az":337,"ss":27,"used":false},{"PRN":24,"el":54,"az":46,"ss":27,"used":false},{"PRN":25,"el":30,"az":180,"ss":0,"used":false},{"PRN":29,"el":50,"az":215,"ss":30,"used":false},{"PRN":32,"el":20,"az":258,"ss":28,"used":false}]}
{"class":"TPV","device":"/dev/ttyACM0","mode":3,"time":"2019-01-18T01:23:06.000Z","ept":0.005,"lat":-6.158232930,"lon":106.576250446,"alt":19.175,"epx":46.275,"epy":23.274,"epv":166.290,"track":302.2263,"speed":0.081,"climb":0.122,"eps":1.98,"epc":332.58}
{"class":"SKY","device":"/dev/ttyACM0","xdop":3.09,"ydop":1.55,"vdop":7.23,"tdop":5.57,"hdop":3.54,"gdop":9.79,"pdop":8.05,"satellites":[{"PRN":2,"el":16,"az":139,"ss":0,"used":false},{"PRN":5,"el":8,"az":82,"ss":20,"used":false},{"PRN":12,"el":27,"az":141,"ss":17,"used":false},{"PRN":14,"el":12,"az":242,"ss":0,"used":false},{"PRN":15,"el":14,"az":17,"ss":19,"used":false},{"PRN":21,"el":36,"az":337,"ss":27,"used":false},{"PRN":24,"el":54,"az":46,"ss":27,"used":false},{"PRN":25,"el":30,"az":180,"ss":0,"used":false},{"PRN":29,"el":50,"az":215,"ss":30,"used":false},{"PRN":32,"el":20,"az":258,"ss":28,"used":false}]}
{"class":"TPV","device":"/dev/ttyACM0","mode":3,"time":"2019-01-18T01:23:07.000Z","ept":0.005,"lat":-6.158229762,"lon":106.576252771,"alt":18.973,"epx":46.275,"epy":23.274,"epv":166.290,"track":300.9232,"speed":0.102,"climb":0.115,"eps":1.77,"epc":332.58}
{"class":"SKY","device":"/dev/ttyACM0","xdop":3.09,"ydop":1.55,"vdop":7.24,"tdop":5.57,"hdop":3.53,"gdop":9.79,"pdop":8.05,"satellites":[{"PRN":2,"el":16,"az":139,"ss":0,"used":false},{"PRN":5,"el":8,"az":82,"ss":19,"used":false},{"PRN":12,"el":27,"az":141,"ss":16,"used":false},{"PRN":14,"el":12,"az":242,"ss":0,"used":false},{"PRN":15,"el":14,"az":17,"ss":19,"used":false},{"PRN":21,"el":36,"az":337,"ss":27,"used":false},{"PRN":24,"el":54,"az":46,"ss":27,"used":false},{"PRN":25,"el":30,"az":180,"ss":0,"used":false},{"PRN":29,"el":50,"az":215,"ss":30,"used":false},{"PRN":32,"el":20,"az":258,"ss":28,"used":false}]}
{"class":"TPV","device":"/dev/ttyACM0","mode":3,"time":"2019-01-18T01:23:08.000Z","ept":0.005,"lat":-6.158233196,"lon":106.576257312,"alt":18.902,"epx":46.275,"epy":23.274,"epv":166.520,"track":278.0638,"speed":0.052,"climb":0.068,"eps":1.68,"epc":332.81}
{"class":"SKY","device":"/dev/ttyACM0","xdop":3.09,"ydop":1.55,"vdop":7.24,"tdop":5.57,"hdop":3.53,"gdop":9.79,"pdop":8.05,"satellites":[{"PRN":2,"el":16,"az":139,"ss":0,"used":false},{"PRN":5,"el":8,"az":82,"ss":19,"used":false},{"PRN":12,"el":27,"az":141,"ss":16,"used":false},{"PRN":14,"el":12,"az":242,"ss":0,"used":false},{"PRN":15,"el":14,"az":17,"ss":19,"used":false},{"PRN":21,"el":36,"az":337,"ss":27,"used":false},{"PRN":24,"el":54,"az":46,"ss":27,"used":false},{"PRN":25,"el":30,"az":180,"ss":0,"used":false},{"PRN":29,"el":50,"az":215,"ss":29,"used":false},{"PRN":32,"el":20,"az":258,"ss":28,"used":false}]}
{"class":"TPV","device":"/dev/ttyACM0","mode":3,"time":"2019-01-18T01:23:09.000Z","ept":0.005,"lat":-6.158231796,"lon":106.576258797,"alt":20.058,"epx":46.275,"epy":23.274,"epv":166.520,"track":73.8226,"speed":0.018,"climb":0.047,"eps":1.19,"epc":333.04}
{"class":"SKY","device":"/dev/ttyACM0","xdop":3.09,"ydop":1.55,"vdop":7.24,"tdop":5.57,"hdop":3.53,"gdop":9.79,"pdop":8.05,"satellites":[{"PRN":2,"el":16,"az":139,"ss":0,"used":false},{"PRN":5,"el":8,"az":82,"ss":20,"used":false},{"PRN":12,"el":27,"az":141,"ss":16,"used":false},{"PRN":14,"el":12,"az":242,"ss":0,"used":false},{"PRN":15,"el":14,"az":17,"ss":18,"used":false},{"PRN":21,"el":36,"az":337,"ss":27,"used":false},{"PRN":24,"el":54,"az":46,"ss":27,"used":false},{"PRN":25,"el":30,"az":180,"ss":0,"used":false},{"PRN":29,"el":50,"az":215,"ss":29,"used":false},{"PRN":32,"el":20,"az":258,"ss":28,"used":false}]}
{"class":"TPV","device":"/dev/ttyACM0","mode":3,"time":"2019-01-18T01:23:09.000Z","ept":0.005,"lat":-6.158231833,"lon":106.576258833,"alt":20.600,"epx":46.275,"epy":23.274,"epv":166.520,"track":0.0000,"speed":0.018,"climb":0.000}
